AccX,AccY,AccZ,GyroX,GyroY,GyroZ,MagX,MagY,MagZ,VerVel,VelAcc,Pitch,Roll,Heading,Pressure,Temperature,Altitude,Year,Month,Day,Hours,Minutes,Seconds,Latitude,Longitude,SatellitesUsed,AltitudeGPS,SpeedOverGround,CourseOverGround,GNSSMode,PWMsignalServo1,PWMsignalServo2,PWMsignalServo3,PWMsignalServo4,PWMsignalServo5,PWMsignalServo6
65.01227,56.2181473,99.26571,70.4609,93.0928955,30.0217342,8.125087,68.74679,60.7170525,77.51112,45.1164474,7.42162,0.04187911,75.72026,95.830864,32.6620636,8.193331,1118937790,1076255115,1116659813,1079189293,1112154912,1112330929,38457716246049.469,26365768403983.906,1118037943,70.70209,64.80645,21.2744846,"?
",1110030061,1092427043,1106673651,1111571416,1117314891,1118482993
65.01227,56.2181473,99.26571,70.4609,93.0928955,30.0217342,8.125087,68.74679,60.7170525,77.51112,45.1164474,7.42162,0.04187911,75.72026,95.830864,32.6620636,8.193331,1118937790,1076255115,1116659813,1079189293,1112154912,1112330929,38457716246049.469,26365768403983.906,1118037943,70.70209,64.80645,21.2744846,"?
",1110030061,1092427043,1106673651,1111571416,1117314891,1118482993
97.0759354,85.2840347,19.1523457,48.970974,11.3458376,39.55145,22.6929245,68.8003159,9.489058,81.3263245,6.90980864,81.8596649,34.6347733,78.883255,74.15968,29.2033043,77.5220947,1099315484,1093224538,1116655883,1119854100,1102857705,1119106285,76626704.6638898,1657133082979.2605,1118655660,77.75405,3.16613865,50.43234,n?,1105509611,1120274304,1116736417,1102360939,1117832466,1115996529
37.86012,65.81262,35.41464,82.79059,85.23862,43.5249863,14.5035658,8.242106,78.84585,62.00961,27.3008423,37.7967033,38.286,4.43805,42.6657562,91.26289,98.58872,1109063671,1111495195,1107289725,1112338420,1112254127,1115720177,320383042.03402764,25974324.117421374,1118810674,44.664135,67.76041,53.7704163,W?,1117962222,1106386490,1096189348,1103015609,1115912020,1113054263
95.00633,6.213293,3.19494772,96.44581,81.9027939,36.65181,34.22916,95.1572952,62.62759,89.566246,42.5960846,22.6620731,10.7606373,49.6099434,61.2140274,16.5411453,89.116745,1106618576,1110664705,1094461135,1089164490,1092916473,1118427933,8511242148972.8359,8477410877625.8994,1114536347,97.25473,24.3152866,3.34188628,^?,1106757043,1103054206,1106784867,1114656466,1091103368,1100639926
99.91001,17.2720985,1.07645738,88.75673,33.41839,42.388855,9.149087,31.9040375,34.0376625,80.24777,84.21827,29.4560013,14.4901676,42.75631,9.765113,79.3673,37.6088524,1114812651,1109124582,1112751714,1112063821,1110737235,1118920506,1490406665.2336204,730619580681.22,1116396412,22.2240238,0.3342072,15.9955807,Q?,1109486680,1097907350,1096520793,1119352891,1116280786,1099166218
57.05622,57.6727676,68.8567657,2.41194916,30.0825615,35.51568,28.8746834,18.8192215,17.8194027,7.804414,99.51351,14.321372,86.9648056,87.92821,28.3133831,4.64555359,28.1368732,1112706396,1108294093,1107449047,1086967703,1083178772,1091928874,13052206468604.236,213948960.94580412,1109707824,74.81462,56.8890877,65.56705,??,1119086506,1091242783,1106950590,1105317848,1094053501,1118022165
53.16983,86.19996,24.68631,75.50908,55.3144226,89.49986,83.178894,19.34048,36.02958,96.52509,0.621468067,63.27111,5.186088,63.8640976,58.96628,40.92937,66.8223953,1108538855,1118098825,1116014208,1109677975,1104983093,1113109359,20637020199084.812,38847016.34528894,1101805982,78.32724,12.5427618,57.5517845,c,1043544678,1098246720,1100906627,1113177399,1084057528,1095707873
49.35299,45.79605,26.19216,12.5104675,51.1901779,0.7930921,80.85601,16.6989632,86.854866,10.3385382,83.64598,88.56604,39.85729,34.61866,17.34012,38.237175,63.5766525,1116825353,1111250802,1111216592,1101530476,1090570535,1102401937,420210345931.53882,907211.63002859312,1108048139,43.4384079,62.3271027,96.02525,??,1110164187,1115744073,1075156112,1114471698,1118241922,1080369387
6.49920225,86.19672,93.9724655,26.1656857,47.85435,93.9199142,0.581607461,3.61414933,70.6366043,37.8951759,98.94122,73.43141,12.3319263,79.79055,35.8883934,63.5154228,54.10467,1115772226,1110420313,1104531595,1117404846,1116133485,1110264607,1268443.2593144507,5828787609036.0879,1087664659,96.029,18.8819847,45.59672,?0,1119425260,1114137140,1100980771,1119828548,1104325119,1116329626
11.4028826,97.25552,91.85398,18.47661,99.36995,99.65696,75.50153,40.3608932,42.0466766,28.5767059,40.5634155,80.22534,16.0614586,72.93692,84.439476,26.3415833,2.59678316,1119699843,1108880190,1116180090,1100981280,1074843361,1111249753,893892825597.46387,309109525165.77808,1099142974,20.9982948,94.90091,58.2504158,??,1073081036,1111813787,1076481890,1104948313,1118610689,1115961199
68.5490952,37.6561928,59.634285,32.13183,96.03412,92.78378,95.22713,27.27608,25.8284187,56.1333427,55.858654,65.09071,88.5360947,18.1088142,2.98774815,51.61983,93.1248,1118646716,1108049701,1111372649,1117267547,1115065213,1116175064,26822420.161214903,39766472.32223203,1118859371,73.58889,51.4557877,7.821883,??,1112412755,1110147645,1101146493,1115622818,1105800185,1107006467
25.6953068,78.05686,27.4145947,45.78705,92.6982956,85.910614,14.9527245,14.1912651,9.610161,83.68998,71.1539,49.9560852,61.01073,63.28071,21.53602,76.89808,83.6528244,1117593589,1107142167,1104843708,1107347291,1101534233,1118882819,4779334939950.8652,9062618053738.9766,1114633743,26.1794815,8.010668,57.3933525,??,1066314254,1108481503,1108839559,1000529344,1116729596,1119982227
30.5989876,89.11567,25.2961044,38.0979729,44.21389,91.64765,89.87265,50.93801,81.02023,74.37151,12.7760868,56.75001,64.7402649,56.4270744,70.0871048,39.72424,32.1449356,1091072432,1104061921,1116258118,1117130248,1113548322,1119375392,133808336.6791568,843605218658.14368,1116445110,51.148777,84.02959,70.04704,?,1093139260,1105020043,1101312216,1107250552,1107275252,1119613800
51.8646965,60.0465469,74.6956253,10.2445011,18.50088,86.53799,92.70753,35.15815,66.8552551,11.9263926,49.3024826,92.47227,37.2932053,69.19054,68.68039,65.76906,50.0984421,1091037151,1117696860,1105522957,1100246843,1102412312,1110024392,152570273.21111128,109714489909.138,1112066805,61.7985764,52.0091248,28.9341278,?t,1099273160,1117937945,1117718777,1120247960,1111864180,1116329253
9.010909,0.447214216,42.4759369,23.89972,15.1650515,79.66481,12.4331255,22.0733356,50.6369934,39.4830322,64.5977249,77.33764,9.767841,14.3624315,87.22866,91.0473,40.62646,1055601787,1117281616,1090927599,1117083938,1118051790,1115439903,7349294115490.5107,659740.128952876,1102037081,14.3891687,8.564005,78.50559,"
",1115985520,1117104874,1120027870,1108097189,1119387575,1107887471
13.91459,11.5060205,40.35745,16.2106457,66.68065,85.4018555,87.35305,58.82008,22.0470657,30.1645584,6.21991444,84.13157,13.4973726,7.508798,35.779747,53.8734627,89.118576,1106470360,1116511554,1111868329,1099697647,1099378528,1116054957,714718341.19660008,17930821723599.75,1107180307,39.3584633,84.5829239,91.15929,j?,1117215536,1115943197,1117760208,1116073253,1112601713,1107004978
71.0608,51.90669,8.137755,29.8658638,63.3448219,78.52869,7.07864666,45.7352676,5.8288064,57.7212,21.5151558,68.99694,85.97201,52.68069,54.32802,79.15171,79.64659,1102257850,1116096310,1105835070,1116946638,1117293344,1118762712,10728318704269.525,276672874715.13953,1080241168,91.94906,41.1378059,40.73076,"r",1103770297,1114535389,1120069300,1078795248,1119756342,1119981855
28.2070141,92.30736,75.91806,43.52108,60.00899,71.65551,26.8042412,32.65045,89.61055,85.27784,36.8104,53.8623123,58.4466476,97.8525848,72.87629,4.42996025,70.174614,1097183034,1115677266,1091551824,1106114693,1108251855,1090666523,29429813370.154297,31847396.1268941,1117168636,44.53965,97.69269,90.30223,?p,1117109805,1112869247,1097929924,1109248308,1108839526,1115192674
33.1106949,3.36616135,73.7995758,35.8320045,11.5245905,77.3925552,1.724168,69.3971939,61.02062,75.9593658,78.43259,60.65624,62.176178,90.9989548,21.4273739,67.25612,18.6667252,1110526033,1114137143,1112024386,1116809339,1116534898,1094607107,15554142327183.293,30333076662133.348,1118454443,69.50894,73.71161,2.95592141,S,1118339820,1110545894,1120110731,1116648813,1120125108,1114455820
90.2569046,43.76683,41.5798836,49.4872246,8.188763,70.51938,21.4497643,56.31238,44.80236,3.516003,93.72783,45.52161,34.6508141,36.170845,39.9756432,92.53437,9.194744,1108419779,1113306654,1106147182,1105565497,1106173670,1107442328,62201635101.274612,778731917763.454,1113823885,22.0995369,30.266489,52.52739,??,1107781845,1108879752,1098261369,1089671795,1109577059,1103443040
47.40312,84.1674957,9.360191,63.1424446,4.852935,63.6462021,41.1753578,43.2275658,28.5841026,31.0726414,9.02307,30.38698,7.125451,81.34274,58.52392,17.8126163,99.72276,1105330792,1112476165,1092176050,1118413601,1118992129,1112857838,8.3599582468958214E-07,237441313.01836935,1105551242,74.69013,86.82137,2.09885836,Z.,1118234089,1107130963,1107558567,1110399428,1118244015,1119091370
52.3068,95.2263,7.24170065,55.45337,56.3685341,69.38325,16.0952854,79.97431,99.99417,21.75417,50.64526,37.18091,10.8549814,74.4891052,7.075001,80.63878,48.2148743,1114168759,1110936042,1112180442,1105016300,1103139887,1113842984,131087286912.39493,50286324666933.9,1108995362,99.6594238,62.84029,14.752553,?*,1119464104,1102484257,1098592814,1117224372,1110314593,1118722943
9.453012,35.62697,75.02201,69.10859,53.0327034,62.51007,35.82088,66.8894958,83.77592,49.31081,65.9405,22.046278,83.32962,19.6610012,25.6232719,5.91702461,38.7428932,1112062504,1110105553,1106459295,1118276302,1118233683,1117471680,1484.9992779029858,2008235123617.2581,1092880742,52.25002,19.3951721,64.32402,?U,1110030414,1099151973,1107641428,1094699896,1118612782,1112674851
14.3566933,46.6857758,72.90352,61.41951,4.54830265,68.2471161,10.7408066,3.636242,55.1859856,39.9923363,7.56269026,28.8402042,87.05915,12.8073673,74.1743546,68.74319,87.23501,1117801302,1108565430,1116662015,1104467103,1100106104,1117964252,276207045262.061,44681011526.444695,1101037421,77.2193146,95.41409,76.9777145,"
?",1112490444,1089686730,1098915953,1110414467,1111052126,1111937997
71.50291,87.08644,40.6838264,75.07473,1.21247435,61.37394,30.4664021,90.55143,38.9677277,67.54897,22.8579311,13.7055759,59.5337868,57.97926,92.7226257,94.02143,77.76302,1116748174,1107734941,1112336499,1118139003,1117475238,1073946876,292069.56347686757,2349.8091004715006,1119332983,29.809906,51.9689751,26.5491829,?',1068800297,1067427689,1107724289,1117799932,1118981548,1097907140
28.6491184,27.487112,8.464136,88.72995,97.87665,54.5007629,50.1919975,77.46661,22.7494678,95.10561,38.1531754,98.5709457,32.0084229,3.151155,11.2709,19.29968,68.2910461,1115695047,1106512647,1106771408,1109090203,1108615643,1102424269,2806220603680.3037,3558519359351.2163,1115580966,82.4005,8.523854,76.12065,?,1112278982,1119733871,1112342474,1099106011,1107283622,1117832459
33.5528,38.5459175,6.345646,81.04087,49.3922424,60.23781,25.1119232,14.213357,94.15954,85.78714,79.77536,5.364874,35.7379532,96.29752,59.8219833,82.12584,16.78316,1119622664,1103432401,1116740043,1118001704,1116716792,1104394561,6304945.0281079868,117535228557.71283,1116918721,7.36979437,84.54278,88.7743454,OH,1114739013,1118572194,1107807150,1111565586,1119350315,1117464032
90.69901,78.94659,74.12595,94.69609,46.0564156,53.36463,44.83752,1.12854254,77.9412842,13.3437805,95.0706,90.23025,8.212591,41.4694176,78.3702545,7.404089,7.31117773,1118569537,1101771423,1112492555,1108815605,1106901246,1111260919,4012676499944.0039,898410.62973326887,1110752442,59.96039,41.0976563,38.3458138,Vs,1092604168,1117739123,1112425335,1118375492,1108027472,1110157028
11.96472,49.8774643,23.5254784,66.84262,20.3434048,48.2549667,47.6723976,85.34869,63.7763023,50.8986626,31.597002,25.9525051,80.76553,54.23288,76.96354,33.4489021,25.2646847,1118565127,1117124236,1094782998,1117955394,1120151989,1120059328,4091202253595.2632,48210378957825.141,1103931527,70.61019,9.077191,97.2328949,?B,1099005614,1107611859,1093137399,1112389371,1112605898,1099879613
69.11093,90.27813,91.3057861,80.49784,17.007576,41.381794,67.397995,72.26387,47.5580444,78.4553,46.8922424,10.8178759,53.24017,99.40477,95.51181,58.7271538,15.7927046,1117512000,1116708991,1119333693,1108722985,1113969144,1099973548,2135951624.8346169,1878489566460.7324,1120056510,23.20078,65.63207,46.8043633,??,1115918634,1104595177,1105258893,1118787384,1119758434,1118200513
74.01461,1.3369379,89.187294,72.80876,68.52317,47.1188354,42.31792,9.010613,18.9681149,69.13683,88.5144348,17.6118031,56.9697,92.55114,44.0628967,21.5533123,64.28481,1090320400,1115938930,1107529513,1117818094,1119393543,1101943840,6197269791914.6641,40626430201.674629,1088763586,48.1700745,41.6509933,59.4580574,?d,1117148649,1099948471,1093468844,1100783659,1113343431,1117832086
31.1608257,41.737606,56.9676056,86.46398,65.18735,40.2456627,62.0435143,95.9258,2.749856,96.69347,3.809674,2.47717357,29.4443378,37.7230339,62.6111679,46.831562,54.8128357,1120386490,1115362506,1095407224,1108448387,1112452253,1110035559,9379309647.4570141,1232.2190001800057,1117642248,0.760669351,98.20587,9.029528,??,1103502751,1094324726,1105424615,1113540491,1120127201,1110893137
36.0645065,52.79641,54.8491135,78.77491,16.7029438,45.9827042,36.96344,32.6725426,74.15993,87.375,45.43186,9.2711,33.17387,30.8694,11.1622534,9.65772,3.30494833,1106161645,1113822383,1112988236,1117680795,1118635097,1111020704,8610177390138.0645,11541913081132.563,1118928054,25.7299633,74.22479,21.6832218,?,1107859534,1076956738,1093800288,1118794904,1114080965,1110156283
57.3302155,23.7272911,4.24863863,50.9214363,90.98993,40.87304,39.79832,16.8926849,59.99495,24.9298782,81.95826,44.99336,5.726812,43.6328621,9.75554,35.7025337,21.2584553,1106144004,1093050845,1096765721,1102449034,1112891292,1119939220,8767228898058.64,4053210233805.041,1116358779,36.3797646,42.20433,80.5703049,)?,1109484387,1113665745,1116479215,1113228195,1117172127,1099878124
14.4764271,64.12796,72.0289459,64.57665,87.6541061,33.9998627,59.5239143,3.80786967,43.7766876,52.486515,97.2535,29.85873,78.20145,88.8047562,28.303812,60.98078,11.7864752,1101931494,1088938737,1119581534,1117634485,1095465133,1099493118,21656572047.768154,14211246166.495224,1109632558,88.97036,98.75921,30.1417713,?%,1119085360,1111999603,1118788308,1119206796,1100045938,1118200141
71.62264,4.528626,39.8092575,78.23187,84.3182755,27.12669,79.24951,90.72305,27.5584316,80.04315,12.5487432,14.724102,50.6760864,33.97665,46.85208,86.25903,2.31449413,1096530322,1082294824,1116930200,1108081168,1116745309,1108810198,31087883621383.949,46134433495269.617,1095429526,41.56095,55.31409,79.71324,1?,1109272925,1110333461,1084844929,1104733467,1114897204,1111629247
76.52632,15.5874319,37.6907654,70.5428,35.8338737,32.86373,54.1694374,27.469799,98.9685059,70.7246857,54.1709328,21.5180283,54.4056168,27.1230183,95.40317,49.08519,50.8066063,1110362855,1120167957,1097389946,1117497186,1088276092,1109795344,46655119681.328308,6808941888099.4414,1102311813,66.53024,31.3330135,92.3669357,?D,1111732956,1108010107,1118829738,1114379315,1101521004,1110892393
33.67253,55.9881,5.471074,84.19801,32.4980469,25.9905586,73.8950348,14.384985,82.7502441,98.28132,69.46617,6.3834,26.8802528,72.2949142,13.9514389,74.36344,41.3346252,1108256601,1119752712,1119659562,1107806570,1115986863,1115210855,46294655921741.5,36571849050.392616,1119651581,19.1208382,87.88789,41.9384041,?o,1120209644,1105391675,1085507818,1119782356,1115634737,1093724724
90.81874,96.38877,73.25138,97.85323,29.1622181,19.117382,93.62063,1.30017042,66.53198,25.8379612,84.76141,91.24877,99.35489,17.4668045,32.49971,99.6416855,31.8626461,1105004436,1119337468,1117008229,1119101448,1103981532,1118155615,523711350330.33783,644.76721690052682,1115951513,71.71143,44.4427757,91.50987,95,1111521494,1102059391,1102696908,1107035706,1087652188,1117309657
12.0844536,67.31965,22.6509075,69.99976,3.449206,14.0077171,96.4555054,85.52031,52.3670044,63.39284,21.2878132,26.97103,71.90783,30.2302685,31.0929966,25.6865025,49.81615,1104986795,1110805440,1107909828,1107713950,1119422060,1107584837,543342791336.93622,27219175020325.355,1111079611,82.36123,12.42231,50.3969536,?{,1113146347,1117197782,1118064950,1120194248,1103153483,1112365356
16.9881344,78.3784561,20.5324154,62.310688,54.9648056,19.74476,71.3754349,22.2670555,23.7770767,54.07437,62.9100037,33.7649574,75.63737,23.3766346,79.64408,88.5126648,98.3082657,1113996761,1109265317,1117178041,1117313577,1104859611,1108569983,57.717750858915792,3923465752283.0747,1113651224,7.330526,88.44123,63.0506477,?,1115606377,1116036105,1115797289,1106411115,1118317780,1111628502
74.134346,18.77912,88.31272,75.9659042,51.6289749,12.8715858,91.10103,9.182241,7.55881834,81.63101,78.205246,18.6303272,48.112,68.54853,98.19235,13.7909107,88.83628,1111890506,1108434828,1113368551,1107439352,1118663614,1113985494,1180802745013.4351,13197600840.97743,1105205919,59.92112,44.9961128,12.6221161,?,1096073624,1114721205,1118106381,1116019541,1104628549,1096669162
79.0380249,29.8379269,86.19424,68.27683,3.14457369,18.60863,66.02096,45.9289856,78.96889,72.31254,19.8274326,25.4242554,51.84153,61.6948967,46.74344,76.61707,37.3283958,1117715302,1106493153,1119907402,1117176278,1101825827,1114970640,77329.766292552886,2183652.5201342711,1108822700,84.89041,21.0150337,25.27581,?~,1102410697,1112397851,1115838719,1120201768,1118686547,1093721745
36.18424,70.2385941,53.9745445,81.93205,99.80875,11.7354546,85.74655,32.8441734,62.75063,99.86918,35.122673,10.2896261,24.3161678,6.86678934,65.29171,1.89531863,27.8564167,1116662175,1104832175,1117256069,1107033251,1117905168,1118035507,2387257865276.7593,6549448728095.5488,1092190097,37.4810066,77.5699158,74.84728,9?,1116769905,1110731710,1118147812,1108004805,1106103615,1117309284
57.44995,41.16947,3.374067,54.07858,74.09573,6.625789,88.58143,17.064312,48.58565,37.424057,71.64907,46.0118866,96.86911,19.6302528,63.8849945,27.940134,45.80992,1116657765,1117889424,1108405509,1117129968,1111431435,1107344622,2465783633378.0039,2243435181382.083,1119091639,48.130806,45.54945,33.73436,?#,1117582331,1120224725,1109844814,1070417683,1111278362,1112364611
14.5961618,81.5701447,71.15437,67.7337952,70.7599,99.75262,8.307026,3.97949767,32.3673935,64.9807,86.94431,30.8772564,69.34375,64.80215,82.4332657,53.2183838,36.337944,1115524411,1117474179,1098909428,1106848012,1088732372,1112760133,277197633.36116755,2183668232.7585506,1115098277,0.7214009,2.10433,83.30583,P?,1105237479,1119391654,1114462999,1108828590,1119094666,1099260624
19.4998417,92.6289444,69.03589,60.0447235,22.2755032,5.489658,83.22695,40.7262421,3.77746439,55.6622238,28.5665035,37.6711845,73.07328,57.948513,30.98435,16.04454,84.8300552,1119532255,1116704118,1113864232,1116992669,1109914543,1113745279,3672239510621.6611,7613.1025699239108,1116677377,25.6906948,78.12325,95.9595261,?@,1108726898,1118229977,1109927675,1116438953,1112015895,1096666183
76.64606,33.0296135,36.8161926,73.69994,18.9396763,98.6164856,2.95254683,27.641428,87.5592041,83.2188644,43.8617439,22.5365543,45.5479164,3.12040663,49.5326233,41.32279,75.35807,1118479128,1116288873,1108561565,1106298815,1068386266,1117422827,1317665031.9173548,3793719145903.4829,1110269754,78.28129,34.67813,45.53099,?k,1118706616,1117396906,1114545860,1086314048,1119463433,1117677339
33.7922668,73.43028,4.5965023,87.3551559,15.6038475,91.74331,22.6781425,14.556613,71.34095,10.7755022,59.1569862,7.40192556,18.0225525,48.2923,68.0808945,66.6010361,65.88609,1117426000,1115873629,1099221541,1118596931,1114829006,1120130582,12698433696556.141,12183955491.857641,1097978310,30.8718815,91.23301,95.10246,?-,1108515436,1116563835,1117424454,1109979709,1108253708,1110583643
38.6959457,84.48909,2.478012,79.6660843,67.1194458,97.4803543,97.59807,51.3033562,42.75102,1.45703053,0.7791752,14.1958523,21.7520828,41.4386673,16.6319771,29.4271984,14.3782063,1088944413,1114522270,1114020288,1105749619,1119823474,1071025363,6106162212.22475,1645459.2579256506,1103586205,55.8411751,67.25193,7.75615454,??,1110975467,1115119454,1114628721,1117014513,1119832199,1109846788
95.84216,24.8897552,70.25832,93.3213043,63.78362,90.60718,17.3236637,38.218544,26.53276,29.0136681,16.0744171,99.0612259,94.22672,86.61056,35.18025,54.70545,4.906225,1120300490,1113691781,1108717621,1118459631,1113312114,1102228859,17524257278757.471,6289955515441.7656,1119970179,8.43177,23.8068142,57.32762,H,1119830900,1113453312,1117465885,1093021022,1108991241,1088565576
0.745840132,35.9485626,68.13983,85.632225,15.2992153,96.34422,92.24359,74.96529,97.94283,19.6951981,57.6966057,5.85515,97.95625,79.75693,83.73133,17.5316048,53.39834,1105817648,1112151658,1117581938,1105200422,1119065028,1104199151,15531591760.61479,366755776736.35583,1087382295,33.401062,99.82574,69.9813156,;^,1084261171,1111129958,1114711582,1109994749,1120200966,1082670742
57.89205,76.34923,35.92014,99.2874451,11.9633875,89.47105,11.9691849,61.8804741,81.72457,47.2518349,72.9918442,90.72052,70.4308853,24.9288216,2.279605,42.8098526,43.9263573,1101605138,1111321169,1114176344,1118322332,1111795223,1111163214,27107975674217.742,53840264.254424959,1117555917,85.99166,56.3806152,19.5527859,B?,1113224035,1109463816,1117507315,1117590073,1109728774,1116418428
15.0382643,16.749897,3.70044756,12.9426641,8.627559,82.59787,31.69478,48.79566,65.50632,74.80847,88.28709,75.58589,42.9055252,70.1007156,20.827877,68.0881042,34.4543762,1095877610,1110490680,1108873678,1109456862,1091080857,1116131794,186301711151.26245,9984953866761.1328,1112026834,38.5822525,12.9354973,69.12425,?h,1082569475,1107797674,1119816408,1097625500,1118319873,1108065820
19.941946,27.8087025,1.58195722,5.25358963,60.143158,88.3349152,6.61470652,85.5424042,36.9163857,65.4900055,29.9092789,82.37982,46.6350555,63.24708,69.37896,30.9142628,82.94649,1110199677,1108950557,1117659966,1118185033,1110278331,1116624367,38334873356424.711,958897721805.8866,1114598447,63.5515442,88.95442,81.77795,;A,1096384380,1103652386,1117548746,1111145868,1110466308,1107328966
77.08816,68.20937,69.36227,18.9088078,56.8073273,81.46174,26.3403015,72.45759,20.6981258,93.04664,45.20452,67.24519,19.1096916,8.418976,87.92723,56.1925125,73.47451,1108093423,1108120068,1114332401,1109182264,1076884648,1119332123,399339227208.225,382390082.04183275,1107100366,16.14214,45.5093,31.3494167,??,1115472604,1100320103,1119857838,1118165633,1118688639,1120071029
34.23437,8.610038,37.1425743,32.5640259,53.4715,74.58856,46.0659,59.372776,4.479868,20.60328,60.4997635,52.11056,91.58433,53.59087,6.47550344,81.47076,64.0025253,1104678080,1107282901,1109029734,1119789295,1115192794,1095221810,999275.62984501454,16186089724846.732,1079601640,68.7327347,2.06417966,80.92088,Bl,1095538532,1095067989,1096238228,1100568813,1106111986,1115371022
39.13805,19.6688442,35.0240822,24.87495,4.98709869,80.32561,20.9858227,96.11952,75.88994,11.2848082,2.121951,58.9044876,95.31386,46.737236,55.02659,44.296917,12.4946394,1113842403,1104202655,1117737994,1108907666,1120005367,1099035021,852150588098.375,2368568051564.2466,1095978989,93.70203,78.0831,93.57458,??,1102143151,1079929793,1119899269,1112296987,1119057406,1114634168
60.40376,90.5997238,84.42361,97.02148,79.274086,75.21594,23.8207035,80.33966,61.72496,48.83969,38.64835,94.62675,67.866806,59.5006981,53.619873,70.3417358,30.4481468,1113833583,1117732044,1109369358,1118001424,1115631833,1116011687,891413466455.564,334319125247.51349,1119565250,4.35182667,46.0626373,52.4616623,?,1105392857,1113851560,1113347728,1099944222,1088832427,1108065075
17.5499725,31.000391,52.20392,10.6766987,75.9382553,68.3427658,43.5463,67.2548447,45.5067024,76.39633,53.94359,79.49212,40.34144,4.67259359,72.1681442,95.61998,20.9761658,1111727328,1117316799,1100837128,1108815046,1102667473,1118719442,26519748.140249569,45921192.3420308,1115865182,56.94242,2.617517,2.03312969,x,1117515445,1112185419,1116825388,1113120772,1112020080,1049308090
58.334156,11.528985,68.46621,44.49631,49.83104,72.3163,35.35694,6.696635,14.863493,57.0796127,74.3346252,35.4291573,43.9926643,30.22739,40.6742172,57.6795769,42.04279,1116584996,1096693258,1117816022,1119514696,1112159010,1114981806,123617424.6911753,3918849918880.9463,1116020196,23.8525085,67.2117844,5.37121058,ve,1106640288,1118031155,1096901117,1113448107,1108179187,1118812118
15.4803677,51.9296532,36.24652,58.15153,46.4952126,65.44313,55.0825348,93.61182,98.64523,84.63625,89.62987,20.294529,16.4673023,75.3992844,59.22249,82.9578247,32.57081,1115378874,1093371302,1114644514,1111841591,1092536007,1118041090,7025275727938.1123,13161556033.750368,1108955391,76.4431,23.7666645,54.94268,??,1117827303,1117198084,1107140752,1119316752,1117545079,1112853200
20.3840485,62.98846,34.12803,50.4624557,98.01081,71.18017,30.0024624,30.3585644,70.0553055,75.31778,31.2520542,27.0884571,20.1968327,68.5456543,7.77357149,45.7839851,81.06292,1119459486,1083902579,1066047974,1119377397,1110642119,1118533663,556505730.93023884,2148448.5189728728,1111527004,1.41239536,99.78558,67.5963745,?,1119057318,1116036408,1097232561,1102901130,1108916721,1112116345
41.6497574,33.91934,83.52755,22.6089859,72.2978,66.0705,32.83734,14.5787058,55.8903275,12.8726625,67.77845,62.8107147,92.74978,81.30911,6.366858,71.8288,99.0164261,1119455076,1114207510,1114984138,1108265849,1094292164,1108340934,633190533.29274809,2.0560881423237609E-07,1105480651,12.0621958,67.76512,26.4834557,?B,1119869744,1101116600,1116908250,1119160604,1113495146,1103798248
98.79597,74.32001,51.30786,36.2642021,68.96197,59.19733,52.5629349,1.49389088,39.67207,40.4293022,83.07369,47.6760864,65.22441,26.4810085,24.9151287,97.10705,89.54445,1118401949,1113377021,1109681471,1119331087,1116598688,1113756445,10394385024989.695,2238821440327.3081,1050513047,64.65279,24.3200016,76.054924,?1,1110841694,1096660985,1119217342,1104548700,1120203059,1119180172
55.94218,14.7206736,19.088171,49.9194221,65.6261444,52.3241539,72.2885361,88.40907,23.45381,67.98594,98.3689346,32.54146,37.6990471,71.6529,43.4634,22.3852959,80.07247,1117348822,1112546532,1101461353,1111474372,1106428831,1117428410,28125384835.230621,2165643797.9414358,1116743722,17.2433834,80.8748856,25.6263924,??,1119764013,1089473794,1091114258,1115423011,1109732960,1113589309
60.8458633,25.77948,16.96968,42.2303467,17.14174,58.0612,47.2084579,25.15582,94.863884,58.66747,39.9911232,39.3353844,41.42858,64.79927,92.01449,85.21146,28.56458,1087709552,1111006409,1115140194,1119193788,1115840242,1117920983,15220200237612.451,7475.5869383754807,1118029529,42.212677,56.8938026,38.2800865,??,1083190986,1120225027,1119258772,1119736164,1067740232,1112852455
17.992075,66.1801453,84.74999,55.8855667,13.805912,51.1880226,66.93405,12.0710068,78.64562,86.2241058,55.2863655,24.2007561,13.9032164,9.971163,10.5627565,10.4897032,19.0926,1120223312,1110175920,1109837528,1111199774,1103395048,1071382681,59592745257.581566,3789103308012.9082,1112974057,94.80327,13.4486837,87.8515549,?p,1113090262,1119391957,1091445702,1106850939,1110470493,1100236311
22.8957558,77.23895,82.6315,48.19649,65.32151,56.9250679,41.85398,48.8177528,50.0556946,76.90563,96.9085541,30.9946823,17.6327477,3.11752963,59.113842,73.3158646,67.58471,1105508932,1108635797,1118141891,1119056489,1114478729,1085227509,22499861606506.051,131946791417.25116,1115545670,19.7725639,89.4676056,0.5052488,?},1115550293,1118230280,1119300203,1115438050,1082335996,1098617557
80.04197,17.63962,50.411808,61.8517075,61.9856834,50.05189,61.5795746,35.7329369,33.8374367,4.46227264,12.2037964,15.860054,90.10738,48.2894249,77.66211,98.59411,58.1127319,1101296423,1107805308,1115296251,1110925176,1100361265,1104221483,125869507212.70187,1627857.2562743817,1108145534,72.36316,46.0224876,50.0767174,??,1095849288,1117397209,1091777147,1120311724,1111208026,1117921261
1.30767727,88.5705,99.81133,33.9982376,36.27267,44.9422264,64.41445,19.9530773,19.6724548,42.0171547,48.7301941,51.5823135,62.6603279,61.052887,76.2554,24.6389256,76.06624,1101278782,1118759970,1102452714,1119010179,1118516993,1117308303,130777301526.57962,51899756001843.461,1098527773,83.0129547,14.0020218,8.963799,?c,1100628174,1106559804,1116226323,1115973350,1115735658,1113588564
58.4538879,28.9711685,67.59164,47.6534576,32.9368439,38.0690536,84.14005,6.868263,3.454197,69.57379,64.02544,36.4476852,35.134964,6.22478,94.80367,49.9171753,66.59426,1095224898,1118344725,1075979945,1110832556,1110699154,1120016058,1448.0510349209476,2109074581593.395,1118753056,35.60355,70.5569,58.5352669,?,1116324274,1103227521,1118535415,1075598341,1088865908,1101708529
63.35757,40.0299721,65.47315,39.9643822,84.45244,43.8060951,59.0599747,43.61501,74.8642654,60.25532,5.64762449,43.24161,38.8644943,99.37115,43.3547554,12.7433338,15.08637,1110036499,1117574664,1110333208,1118872880,1117758547,1062038397,274967366003.28107,47832211802.718636,1120038862,60.5728455,46.5758247,71.1889648,^?,1117554289,1098253980,1116267753,1107912421,1116104425,1100234821
20.5037823,80.43064,33.2534561,53.6196,81.1166153,36.9329224,78.78557,30.5301933,58.64601,87.81196,20.9428654,28.1069813,11.3391314,44.54304,61.9030266,38.0215836,5.61439037,1107930245,1117159419,1102764827,1110557958,1109182262,1101770762,287340.06507455779,3852.4243363715395,1116338794,13.16344,3.130704,20.76043,f?,1105125311,1091589412,1118576846,1116548909,1092642607,1118289316
77.6499939,20.8313084,1.03376627,67.27482,77.7807846,30.0597458,98.51117,17.4453773,42.42775,15.3685989,36.23811,12.972353,83.81377,89.7149353,80.4512939,63.29983,96.14241,1104351724,1116744175,1078476847,1058007764,1120215779,1109949020,2801262927564.6069,3659358818509.14,1109592587,65.7540359,59.685585,70.3319,"?,",1117448558,1076530867,1080792639,1088073342,1112761798,1111807596
82.55367,31.8901157,98.9152756,59.585743,29.296381,35.79679,73.43109,54.1921234,13.837822,6.050127,77.8603,19.76628,87.5433,82.8613052,29.0023823,26.12599,44.63452,1113679225,1115974113,1110489265,1110283359,1107665370,1110934165,6229277.0433364986,123837629110.26071,1112164200,90.72333,35.7045059,82.9855957,M?,1118678574,1119591081,1118618276,1109063541,1095592740,1111070741
39.6998863,72.29078,66.69559,73.24096,25.9605541,28.9236145,93.1566849,41.1073074,97.61956,33.6067657,93.15554,4.6316514,60.0179367,28.0331955,47.55065,51.40424,35.16254,1111572970,1115432873,1103076940,1120339843,1119457333,1116017270,4007716731202.5522,1132914.260234793,1102231872,43.31392,92.2593842,32.55706,??,1108459352,1118758010,1082118417,1117124469,1113499332,1094438119
44.60357,83.34959,64.577095,65.55189,77.47615,34.66066,68.0766144,77.85405,69.02963,24.2882938,34.77773,11.4255781,63.747467,21.1795616,96.10174,14.2303982,83.6546555,1117556535,1113892750,1115816426,1110008761,1105000702,1116509843,64998856.189737327,19738583388958.457,1107335677,68.28322,68.2783051,45.2107544,??,1110919383,1117596333,1118659707,1088193657,1098542873,1091490703
1.7497803,23.7502556,32.3574028,79.20711,74.14032,27.7874832,87.80221,64.76924,52.8113747,51.8449326,50.07297,96.29095,36.2221031,66.3514557,14.6500092,39.5086479,74.18267,1116503407,1113062261,1110645321,1120202543,1118698887,1119217599,6030298745553.9531,333165693660.33661,1081799494,20.8738079,24.833189,94.78223,?,1119802858,1116763262,1082787313,1110214660,1114236865,1117030404
78.41447,73.74864,67.00048,54.535408,70.4102859,29.997509,96.50357,6.90607262,20.11489,22.529974,49.23285,1.37110078,39.7950249,24.3146839,3.11106443,0.801674068,67.82381,1118333590,1108016024,1103564760,1116010656,1088238444,1108220757,16925558858.019863,10986008431015.104,1119941623,29.72469,78.0028,88.8046951,yr,1119302289,1110334671,1082935602,1096519347,1116364259,1112604934
74.5976257,33.3447342,68.50633,91.5368,66.28605,41.2907372,94.18069,4.264555,70.94017,36.34342,32.2573624,26.6660328,74.4662247,95.0692444,61.4849,98.10948,64.578064,1101093553,1120326652,1084909031,1111071840,1118748494,1082164596,0.00010919456012541514,6820614672801.4727,1092423845,94.83586,27.7871437,27.2781582,^?,1107915971,1119443048,1118687511,1100302096,1111431123,1110149084
15.38181,13.8733292,84.76862,25.35641,40.17883,45.26427,85.99133,43.7063446,40.2969666,17.026701,52.6483955,82.60307,78.11745,20.6240444,29.9909725,60.16907,85.64469,1109952705,1108568059,1115934451,1072301399,1097599324,1117543772,1464.7316998987717,4215726593.2972136,1093663954,61.745945,92.38141,30.61624,R[,1118718741,1103061466,1105352872,1100956766,1107590230,1106494048
8.40852451,23.743784,70.92972,80.52032,59.2201843,36.6275864,22.6076412,33.3165741,22.0254269,34.5851,46.7124825,16.6115551,50.5137825,98.20437,68.49423,84.6807556,48.74722,1104201777,1117388289,1115842667,1116542196,1116034118,1116372847,87884368.655661181,3689486496764.0996,1117014285,56.2773323,37.5116348,70.87209,??,1117800583,1114028101,1083380466,1103883596,1067907640,1118595583
49.1927071,4.272379,87.19202,14.3399305,33.1129646,40.60112,14.4182844,72.75836,91.38222,15.2683811,67.1035156,72.54859,54.1650047,23.7591667,37.0002975,46.74035,69.81384,1111506817,1097265172,1104036860,1104132965,1119622691,1110288614,365413697.93639743,394848834.57033294,1117169299,23.18742,2.105902,74.2101746,??,1107538549,1118952497,1110961285,1104538265,1118653995,1116968617
45.37587,63.8684769,88.69786,51.3413162,28.9887238,51.89435,12.0954046,70.1168442,42.2075043,29.0818253,50.1280327,97.84353,88.8362045,94.51373,95.37414,44.0481529,66.5681,1118309334,1117664306,1086797429,1086080649,1117061691,1094613247,16990515288224.299,56317064.283165284,1118917809,88.29859,51.8902435,12.6836414,?y,1117217035,1108872291,1105464088,1107126864,1115847729,1115740692
66.64158,34.7993546,38.0973854,23.4878483,3.27571249,46.78468,14.9302845,54.3369865,28.0425243,66.6367,86.65443,33.5657845,61.38915,7.27719355,93.96742,70.09297,84.52161,1118304924,1107459116,1116008549,1111860320,1109744479,1115201223,17304618359155.33,4955.739273196361,1116348533,98.94839,19.86978,71.5707245,?P,1118029461,1119295016,1118756745,1120217038,1118136942,1109227427
7.425761,15.3279486,54.35968,57.30746,77.1684952,50.7582169,6.740926,93.77878,97.3993149,47.3199921,7.04546261,89.50282,65.0403748,32.8319931,62.4734955,32.15256,5.588231,1086227719,1116479000,1104700387,1083883863,1116303245,1108429008,26040491712221.902,979187667876.76807,1116503547,65.8584747,84.46405,74.9088058,??,1107996305,1102469336,1105629810,1120380705,1116216496,1104650733
64.5719757,55.7286148,22.13999,70.96268,73.8326645,43.88504,26.4665222,80.69396,81.18105,74.87663,22.340704,74.3681946,37.51501,78.00388,81.02177,57.4308128,96.11625,1120130697,1116063755,1088045880,1114886864,1105247058,1113844519,169622275335.85629,402204482.27175534,1109922094,18.44907,41.01893,24.4802723,?,1118341319,1099137052,1111081218,1108362680,1093539179,1119393293
69.4756546,66.78742,20.0215,63.2736053,25.3482647,49.6220856,1.38644731,17.4407063,52.59113,65.55816,63.9628944,81.1621246,41.244545,71.15025,29.5728512,20.2569714,44.6083641,1105138474,1114902524,1111457045,1081243721,1115404734,1114829665,36199905675831.008,0.0024935030565596539,1112493706,43.4183655,17.03785,37.13397,?/,1119571334,1089627045,1105795532,1116205998,1116585263,1119024866
26.6218662,7.18809032,87.80181,76.9288254,22.0124359,42.74891,21.1120434,4.355892,36.37287,93.1148,79.25813,66.02749,13.71918,16.3221455,48.12112,45.53522,35.1363831,1100925965,1114072035,1105012500,1114612266,1102213275,1117965020,365980355228.19385,2409147944647.7725,1102890884,96.00896,73.59273,86.70544,?,1110244874,1067188950,1111164079,1082586766,1096489312,1113278697
47.8875771,78.11897,37.2013321,49.07535,96.29942,37.6392441,23.9469223,88.5760345,22.20789,30.66968,15.7845325,1.74975145,86.2721252,29.08561,46.71441,71.58003,53.08989,1100908324,1094049450,1118815938,1079761803,1118979996,1107111039,385611794733.09119,344464098966.75983,1082111159,6.65875864,41.5722656,45.5925179,'?,1111869727,1113260035,1085665710,1116617891,1106855332,1106122952
5.033788,18.5196381,4.981641,62.73057,92.96359,30.76607,43.67252,75.49122,5.98963165,58.22632,31.0797749,86.61512,58.74676,74.2575,65.26268,96.858284,43.61791,1094483981,1090727494,1116164605,1114519646,1111625159,1112619158,894542.63008217735,48397992.132457696,1117227074,59.24935,98.1271439,95.16399,V?,1120278030,1111593893,1102736381,1089177044,1116993382,1119761348
9.937469,29.5784435,2.86315036,55.0414963,44.4791946,36.5031128,18.5924435,12.2379627,77.399704,48.9078445,72.7019653,93.40905,62.47629,67.40387,13.8137636,59.68444,92.11002,1109851270,1075099496,1091265183,1075368231,1118221550,1113604304,824695723078.05371,32502404219780.734,1118512880,84.21864,74.1460648,7.81768,?,1090967145,1109270540,1086328599,1109201504,1107813327,1119392921
67.08368,69.97911,70.6434555,68.69672,41.143364,29.6299381,38.31804,99.1531448,61.1814461,76.4644852,87.99721,78.27442,34.9509277,12.5757627,32.3620338,84.96269,82.63804,1107745016,1120292783,1118893967,1114245048,1110108267,1117352340,18375492.171203971,914314366279.86963,1113940760,36.80924,30.7009468,57.38915,$J,1114118295,1107604398,1102902103,1117193450,1117362149,1114014807
43.7483673,19.9774933,5.286538,44.0250168,37.41333,31.8399639,47.0193977,41.28998,28.4849567,47.1495247,87.15708,83.35457,38.5238457,70.5389938,20.82309,46.25572,76.2791748,1111405382,1117769664,1116286560,1104426292,1115329482,1101684223,6601353207174.4717,17367918716793.947,1111989201,45.6601219,83.87056,51.4116173,]?,1113117158,1083259904,1102939175,1110992253,1118765543,1108243796
48.6520462,31.0362988,3.16804767,36.33594,88.92893,37.5770073,21.9393234,78.03673,99.89503,37.8310547,28.7792721,90.1485,42.253376,63.68536,69.374176,9.081877,24.77129,1117472740,1116999603,1092240823,1116387239,1120073712,1103654514,443191618.74342275,2664025307944.6206,1114560814,70.62942,59.88948,64.06531,-e,1115577188,1119836659,1087139776,1117520785,1111357649,1107506942
25.3167343,81.03468,37.8111267,11.6642447,85.19889,39.7870331,30.64068,20.1735611,67.19854,8.516095,27.93915,95.22865,45.8262978,21.6485863,57.835228,70.3749,18.412426,1119302924,1113268104,1119059848,1108705840,1099642494,1116422537,13430054471179.119,32622914901071.246,1112609256,79.48029,13.0590925,58.0877762, ,1114576051,1116083164,1087288064,1111646923,1114164437,1093443566
37.8619232,0.5028515,90.83499,28.5012379,3.84604263,40.2335472,56.2327538,65.00544,32.4487724,69.2028961,5.86787367,49.4519119,49.32091,12.0202465,66.25127,30.9013653,84.6280746,1120084390,1117630437,1119011991,1099950163,1106173063,1118386268,1.4898474312082026,51028984809360.742,1108396112,30.27197,54.80405,42.794632,??,1120318197,1117587360,1115844229,1118899642,1119651885,1117673553
98.16458,90.62916,73.96005,23.9939365,77.34462,53.2902832,37.01916,59.6688766,85.32734,93.01458,10.1235437,25.6037331,84.07042,50.36638,4.67012358,28.9757366,8.807817,1109793937,1045170709,1112093061,1118478361,1099840923,1118134817,486887.563206682,80316304.631558642,1114154717,53.4423447,16.0130463,90.58371,??,1120235217,1118762950,1118968808,1103166621,1111358695,1117704168
55.31079,31.0298271,41.7403641,37.6491547,74.00879,46.41711,56.7447548,46.5840645,69.10908,20.5712185,25.4187851,10.4691038,56.5450554,95.53827,23.2183952,54.2539864,99.33584,1107687683,1120014328,1106284532,1109768919,1117408943,1079404952,3010502082564.6733,11287302057779.898,1106212905,6.03294,72.5679245,40.1551781,??,1111572639,1117929879,1087732929,1114731972,1119134833,1110637300
96.09498,11.5584221,58.00266,71.4687653,47.90157,50.3906441,48.555397,86.025856,38.46587,1.254503,45.80982,66.40614,60.19628,21.093071,91.7244644,16.31358,20.402462,1113445483,1107943413,1119177873,1119991633,1083246778,1117456465,4138432222355.373,16718850081.23844,1106832959,72.94303,37.1621933,43.49326,`3,1066156224,1095109932,1111505342,1115059306,1117214386,1107383368
36.879158,92.08701,74.26495,5.28838253,21.7943535,54.3641777,40.36604,25.4676418,7.822663,81.93779,66.20085,22.3431816,63.8475037,46.64787,60.2305336,78.37317,41.4690857,1117444074,1116721148,1112336971,1112613485,1107249571,1112455851,6134678192273.6377,20461681538700.367,1107374635,39.8531151,1.75646067,46.83134,`?,1113031533,1110344551,1119019506,1115386641,1114903016,1100962614
29.9058743,1.95747149,60.42605,60.45229,40.83571,45.7274933,76.98235,15.0778723,89.5511246,99.4961853,60.26494,56.3516655,36.2438354,24.2281933,98.73379,2.884855,4.5716176,1114999595,1094766587,1112153403,1101527123,1118283139,1110114001,19929474633256.297,3007519252.9358273,1119806088,34.3845024,46.8866844,87.0872,?,1111195218,1117439328,1115913464,1116267460,1105828551,1117212725
6.57056046,51.9558525,95.06912,35.7805939,37.1056747,47.93752,85.68371,57.2147064,56.8546371,70.18122,59.4248161,61.4318161,39.8167534,82.19142,87.19485,64.17788,98.21275,1117172413,1119459857,1106580924,1118963590,1081042517,1118741845,205313180591.8284,817004417954.68494,1118830309,43.2353821,0.0562980324,81.1096649,T,1110194080,1111686801,1115922732,1109140272,1109369192,1112969575
22.2721939,21.1496658,63.4377441,34.4550667,32.5872231,68.31395,72.33659,9.794837,91.20169,27.12307,26.3139687,6.941529,5.58623934,65.73732,15.4814692,97.5004654,98.0801239,1107639170,1109757117,1094097779,1117890868,1110637413,1117746370,84669584.0095829,60914472.245817356,1102117647,64.60684,46.45537,64.03413,?,1107402131,1117198690,1106663420,1117561760,1118618304,1113828886
98.93688,71.14805,98.0808258,9.783368,28.85719,70.52397,81.03795,51.93167,58.5052071,97.80811,25.4738483,12.02168,9.159159,23.7005482,3.94252372,58.7934952,91.72126,1111299537,1102125503,1119291968,1111713097,1115771746,1103260344,8485963058557.876,116381663568.63863,1097521413,73.45772,99.6249847,58.0566,??,1105505731,1111205525,1106700492,1111728872,1120021698,1108057876
95.12004,30.7441444,99.58668,46.7847557,24.7329483,81.8172,78.71507,49.2901535,9.330489,11.6215544,8.498363,37.3166122,43.83036,94.45511,62.3163643,56.1013,88.47552,1118205694,1118674079,1116728488,1105600720,1110736628,1119458651,71573323876.144058,44574974297.017921,1105208569,38.56889,49.40933,96.53007,??,1116648257,1119878475,1096168885,1113023171,1117215433,1103907797
10.8216743,99.93796,67.95529,45.45923,20.2145,2.19362569,65.36795,1.87028551,43.6775436,68.5634,75.38751,82.8263245,9.599845,78.00101,90.60298,89.42388,88.34289,1109705733,1108185561,1112733007,1101309830,1118585338,1118463176,3594656.5204302249,0.00196892071413268,1115198010,59.9403458,95.8084,79.45453,??,1114819700,1102470546,1117567882,1119503209,1102132050,1105626420
42.8853378,29.00384,87.84193,23.969305,38.46744,11.7233429,79.93579,1.92381275,92.44955,72.3786,37.1808739,57.2643661,44.19274,81.164,68.93181,85.965126,57.6716537,1116360075,1110277719,1112725147,1095858147,1114407880,1103151473,13429172285.874033,4099626520567.562,1116059154,66.99231,34.16809,8.612383,j0,1111192572,1094703618,1100782779,1116131800,1104202351,1092453481
0.0315497629,69.40451,55.62224,37.6245232,35.1316147,4.85016727,99.6613846,88.839,76.23129,99.93524,52.4761162,42.1297379,16.6673775,26.3358955,87.48008,11.2433729,48.1996765,1114929032,1109447230,1107422480,1116367951,1100219566,1110639375,24955089739900.32,14573873226.088709,1109033308,19.5829029,90.72297,58.18385,??,1119939453,1085559060,1108657702,1080668741,1116330137,1117150751
76.6962357,19.40289,90.26532,12.9528265,31.4015789,7.060193,8.362744,30.975832,43.5348,70.62028,51.635994,47.20989,20.2402973,84.2991257,75.94113,72.5364,41.8408127,1117137131,1101505730,1095330509,1108667264,1108979126,1119004532,292799187466.728,2179783205010.4377,1106867242,28.4337845,43.8925819,52.2063179,?z,1119438884,1117388538,1108676238,1117027174,1117733531,1112845628
81.5999146,30.4616947,88.14683,5.263752,82.9171753,12.7972374,83.28267,67.72258,14.9448748,61.3018074,93.25819,54.0038147,23.9698277,77.44549,24.49222,35.36256,90.3329239,1084322505,1097943321,1112969057,1117790234,1116898534,1119497105,50819571696954.969,50041889076.426262,1109653362,53.4030762,19.9115028,64.8600159,??,1073847401,1116226862,1100985573,1086636942,1109293625,1112108774
58.2646027,80.4600754,22.7899055,80.59206,79.18714,15.0072632,91.98403,9.859411,82.24839,31.98685,92.41806,59.0839653,27.5427475,35.40872,12.9532747,96.65559,83.97406,1100484943,1119856949,1107754244,1111511831,1119509141,1108779769,1228033763387.9485,4114692457513.4468,1107701804,62.25396,73.0811157,58.88248,R-,1120168331,1109261869,1101022645,1117354509,1112100413,1105379271
15.4108152,20.8607464,90.57021,94.24728,75.85131,8.134088,11.7096243,96.7746,66.03013,59.5434875,7.71330357,43.949337,0.0173835084,80.58061,31.5015469,21.9338341,74.50208,1093637219,1119441704,1096306149,1082551778,1112683450,1114195280,59766728.339961685,14691559484.567143,1084893978,14.844553,29.6359959,8.453949,YX,1111438866,1107595727,1108777635,1095740989,1119505692,1119575428
20.3144951,31.9195518,88.45172,86.5582,27.3669128,13.8711319,86.62955,33.52134,37.4402,50.2250175,49.33549,50.7432632,3.74691439,73.72698,80.05263,84.7599945,22.9941921,1109639580,1118671643,1113212967,1111237232,1118750696,1115180426,2434489930971.7471,3642598.5181264868,1097992960,39.8138466,5.65491629,21.1076431,?,1113898897,1103248492,1101188367,1110674740,1112837946,1119207001
13.34121,41.79001,74.6128159,41.7221069,46.408268,5.234447,23.2458611,23.13157,19.1686611,67.78341,43.39958,84.75175,76.14324,51.3073044,18.5558872,9.271677,86.0967255,1103575526,1104639094,1113029399,1098641588,1109210628,1112838576,8114712650321.1943,290889468462.62671,1117555411,34.3452339,50.78514,61.3635,?>,1112062582,1114121614,1119964745,1112138155,1101698412,1111125888
18.2448921,52.8488121,72.49432,34.03303,97.92387,10.9714918,98.16579,59.878315,90.5787354,58.46494,85.02177,91.54568,79.87278,44.45367,67.10697,72.09784,34.5888367,1113291126,1101558848,1119737826,1114263777,1117014284,1113823722,1103172873.7466946,4571210795.7191725,1118841217,59.31453,26.8040638,74.01719,??,1114522612,1111798260,1117697083,1118093736,1117954012,1110389034
30.790081,72.3169861,25.51819,50.87002,16.5710144,11.4180079,23.7578621,4.710194,55.828968,19.1517372,62.9504929,45.76894,83.36739,34.8253326,75.52301,32.6243,0.80448544,1114854058,1110735458,1119689969,1109181146,1118646927,1116718024,66799542512.480484,14809253907.827461,1116734645,10.1062031,68.54902,58.7240448,?I,1120291478,1114806652,1108897568,1102215157,1099630203,1094903621
35.69376,83.3757858,23.3997,43.1809464,68.08661,17.1550522,98.67779,41.45694,27.2390385,9.833266,4.57268047,52.5628662,87.0969238,27.9716988,24.0740967,95.4504547,49.2965965,1119197078,1109195335,1108242064,1118047175,1101759077,1117210597,24344801680246.59,3757532.5148637462,1118020452,35.0754967,44.5679436,71.37774,?y,1091074727,1112483299,1101428234,1113120159,1117436960,1091956204
28.7204762,93.24625,9.560794,98.34486,87.12797,8.518367,35.2940979,31.06717,8.9675,27.39166,98.6367645,86.57135,59.49325,5.552023,62.5773544,19.96214,12.3991289,1117095234,1117701926,1108058496,1112207691,1116910515,1116039672,1996.1633322876387,294655690979.48895,1110694318,29.606884,89.6981659,11.6335955,??,1069756895,1118508701,1120024712,1114583574,1110848444,1115830053
69.50466,73.77484,25.8230877,32.16447,61.02075,12.4919024,27.10474,70.50896,78.324295,8.074945,19.0278,42.50839,63.1444778,31.1068211,31.0834236,82.02173,33.4657555,1119974134,1099340961,1119811924,1086662833,1060816959,1109622266,282610.81480254943,6614.0752376599212,1111004345,96.5169754,54.2924347,14.9716768,??,1113144054,1099324078,1108998965,1114910909,1106718846,1112721309
10.2888422,54.3034325,42.08538,65.9840851,34.9135323,16.4654369,18.9153824,9.95074749,47.6810837,88.75823,39.4188347,98.44543,66.7957,56.6616173,99.58949,44.0813255,54.53238,1100317355,1113132629,1113605073,1115052257,1105255862,1097900043,4955405.0100899814,1007009534600.1207,1111314372,63.42706,18.8867016,18.3097572,??,1088611042,1111502195,1117766318,1115238244,1099037061,1109467377
25.9904766,23.4972439,10.4540024,64.6585541,30.3950825,36.8418655,5.568266,62.53088,82.02814,45.7000771,6.307986,43.95514,32.5651855,40.2075157,27.8761158,77.40391,54.39975,1117342639,1077309176,1108565968,1112906813,1116355053,1089353451,10697599701076.512,101108048.42264929,1117972417,84.7985153,65.2857742,1.23422313,?),1119936807,1117106387,1110667011,1070231120,1115349210,1110326688
77.57262,62.1608429,97.20341,4.84171724,48.25382,55.45478,9.111865,17.8060551,14.3219147,92.64368,51.96598,38.6079636,98.25636,56.1618462,76.11772,9.95992851,26.8416348,1104468121,1119715285,1108645961,1114062511,1076496373,1116505028,38437.070483761439,434547000993.19244,1088317290,48.1107674,0.260194063,74.84308,?_,1105821777,1109854605,1116277622,1092833804,1107965042,1108668922
9.636276,91.22673,17.0900421,83.35179,66.50676,64.9845,23.6797028,17.8595829,63.0939178,96.45888,13.7593422,13.0460062,32.84926,59.32484,54.44655,6.501168,96.1704,1113211742,1076806261,1108638100,1112099044,1117212714,1091730110,2819521044.0995507,634135683.63175535,1094359900,55.1627274,38.61988,4.0009284,-j,1098227396,1106748041,1092335825,1118369968,1109000193,1100095732
66.782486,31.6273956,84.87035,97.00701,63.1709328,58.1113243,43.4052963,4.774768,46.87566,24.0155182,29.0545845,97.91138,5.323897,4.49673271,72.99482,31.779417,86.69842,1111105487,1120346119,1099374612,1087249488,1108090595,1106149901,15086066424791.088,18107804509599.438,1118232071,7.753322,95.17476,53.5723953,y?,1115809111,1103415757,1104858106,1101386155,1117955582,1118254543
27.085146,21.7537041,67.9954147,92.49971,36.6695061,71.16806,24.1917019,99.43821,99.75423,47.8272057,33.3102531,74.0631943,40.0734062,42.842865,11.4136724,29.8537884,10.8781624,1119157387,1101486236,1117494320,1116964809,1102552795,1105144097,29998622820512.98,34435.008112405041,1085068510,30.9236965,56.38376,1.3614769,Iu,1115726131,1107707187,1112326339,1113672623,1107966088,1118285157
3.74983215,71.75209,2.638494,67.82801,32.9394722,73.37808,32.89306,41.57504,67.05774,18.5122452,32.47013,79.14335,43.6463242,0.8060934,99.8747253,91.14681,4.519299,1083087644,1070960164,1114088963,1109860980,1110145741,1116794932,450409596964.77124,17905537163.347286,1120135595,39.77458,9.553372,95.38394,?H,1114766261,1084082213,1112344875,1104629423,1110772877,1115114440
55.33197,10.4156866,89.3879,8.011176,50.7982063,91.9910049,36.43666,96.85021,99.35151,65.45585,78.12813,73.79617,9.33750248,16.7604218,48.1163368,23.7028332,76.96118,1113172050,1119560342,1114168956,1111016678,1117311929,1108156690,8747394048565.2041,4254889166116.5361,1102815618,3.08682847,44.52779,68.9928,"t,",1119517896,1116713078,1117116554,1108224104,1099481162,1113456674
98.19359,97.61658,79.76164,92.8848,13.0171032,16.1601,62.7374535,12.7371292,11.0605011,35.5313644,65.18845,86.95,5.970351,10.3229475,6.180697,90.7405,97.66521,1093002148,1113590367,1120129932,1118789345,1113477169,1115377371,362992192.35303938,444086338.72872311,1112665355,6.540953,53.26763,68.4214249,q?,1114471819,1119971383,1120195343,1099534174,1089525315,1110079912
38.9777679,78.14517,96.02394,26.7044144,86.90988,20.1336365,54.5480957,52.17892,80.41729,16.2146511,85.57948,42.88704,9.621576,35.8777466,74.68677,52.80009,18.7318325,1107383378,1119544625,1114241089,1110208910,1118169589,1108605156,1507473673.3548968,7052421271115.37,1112975383,73.45104,17.8618984,71.7595,??,1094876104,1105174807,1109340229,1100188843,1119469478,1106355703
35.16093,37.74127,97.5297852,63.7058029,82.7856445,31.4268627,52.2252159,49.5374031,31.2425766,30.0280952,68.604,68.18197,44.292778,6.632308,33.0606041,50.1079,15.4860878,1116247615,1114142402,1109114130,1102592345,1115532314,1085239789,25372607526779.059,4190015862341.7397,1116078633,38.56221,67.64624,10.2329683,?W,1113304722,1117393479,1102221977,1102777443,1116663213,1101444004
47.7061157,57.20944,50.55365,80.54279,1.43279207,31.8733788,77.81729,94.36928,96.49281,90.71489,46.5327225,22.4052334,47.78739,97.00397,41.4766464,10.6343594,81.70174,1117029081,1118067586,1109018416,1080617564,1117241231,1101248458,330247.81384540896,6602921902457.833,1112259258,89.35388,9.391198,94.93982,*c,1119682533,1118897674,1117923323,1115504347,1089533686,1118990653
43.88928,16.8055344,52.0595,17.5441818,97.30855,43.1666069,75.49441,91.72776,47.3180962,4.52833557,29.5572376,47.7001648,82.4585953,67.75853,99.85049,7.942165,78.45599,1092843380,1111188323,1100486657,1118248162,1113675598,1118955679,5492081439201.292,3965266174696.4038,1115720571,54.4650536,59.17554,33.41329,?,1108676458,1108762647,1115580670,1116241755,1118584182,1117762728
48.7929573,27.86434,49.94101,9.855107,48.82415,48.90365,50.4143372,28.4745083,18.7281666,95.20986,71.17943,54.49409,86.1881256,60.9048958,48.40157,70.7683258,26.948103,1109441120,1109648200,1114652846,1104354545,1119246770,1119448252,220404257.38104606,148474987531.03162,1117006377,79.43435,35.19446,46.0669823,??,1111136488,1105582331,1111045346,1042308081,1110994927,1117394301
80.85662,56.9302254,69.8276443,88.36518,67.07709,58.4333649,64.98217,28.5280342,67.50017,99.02506,32.9727859,28.9321365,20.78102,64.067894,26.7303925,67.30956,96.27687,1116227769,1111740358,1114644986,1100427613,1115707804,1107091777,58614784289.386047,79189712.525194436,1117624094,86.48631,73.55415,75.22484,??,1107509361,1099917418,1118766614,1117052573,1112030078,1114130810
68.31926,65.0636139,74.95783,70.05704,7.31300926,75.2827759,85.41649,86.49825,97.74067,35.9704247,57.3996277,72.72807,86.39389,12.4306507,94.92699,99.0990143,41.2932663,1092719894,1118327887,1117764471,1108318776,1119126465,1115793805,802593412.30512154,3537138196.1550465,1119835307,91.73936,97.10391,39.518074,?h,1091524811,1103601573,1116453163,1112644427,1111293591,1109955965
9.103444,45.592205,91.22013,3.87664819,81.20579,79.25631,77.2271347,25.9400444,67.09746,16.6537075,77.7906647,28.6651115,90.04512,37.9854469,63.4330559,61.15861,62.35989,1107312814,1101844805,1109510166,1119266561,1099765368,1109130530,3321381397.75188,11889897688574.566,1119990321,58.64944,61.69818,42.8561554,?m,1115092889,1113640943,1093923312,1112971762,1107452698,1106107809
49.8876266,26.1208,7.48242331,37.6962624,55.09857,83.22984,69.03777,65.3818359,36.45425,97.33699,98.181694,84.60215,93.69634,63.5402451,31.9391251,23.2182026,83.42651,1113070615,1114384550,1065560022,1111163342,1110707958,1095933101,11159750725.148136,18611687588.258228,1120145334,25.5595284,26.292448,46.1942368,?	,1097360384,1118758918,1112704674,1113299097,1099927355,1099599944
81.9512939,55.1866837,27.3690586,16.2063389,73.35152,92.75956,83.6056061,65.43536,85.22626,1.15219271,59.9750557,59.0401955,28.289238,66.70324,10.26795,19.7594433,52.7552834,1118042516,1116080786,1065263759,1109199875,1099963798,1112555092,462897351403.53204,14290.455157658405,1076860260,32.6114922,64.65214,75.35209,??,1060119075,1117342689,1119596278,1105816300,1101997657,1120187218
88.9324,72.9177856,99.3620148,59.5712738,13.1932268,18.6921711,93.015686,78.62723,98.9885254,81.22595,68.26653,23.050909,25.0003929,27.8573341,48.377327,87.5636749,0.88479507,1110951130,1118588189,1101614424,1116230373,1083473702,1091774774,40544411973.4846,11630404526972.309,1109497842,94.1248245,84.8166351,84.09633,^?,1102797113,1115001744,1114281141,1109784507,1118695208,1119757376
24.1525116,51.7093124,34.5934067,19.9188328,8.280572,48.1518,68.64433,86.42901,16.85735,81.2962,19.02032,88.7754,21.86816,24.1945667,46.5767326,56.9010353,3.8652842,1104097663,1100299808,1074896261,1116717233,1086721443,1103897939,4553553.0291117541,70185.016232293128,1119788441,71.75657,27.8304367,11.4717932,:f,1114466528,1115935737,1086486490,1097990133,1068060163,1093659685
0.817198336,1.70769548,69.23649,95.24713,4.550537,50.361824,77.34569,28.5658455,84.1608658,51.9812431,18.1801987,93.85555,25.44108,82.1578,35.03779,18.1940632,97.506424,1109357326,1120325530,1118094270,1109365827,1104206375,1116483393,5496556782807.16,20096110733.308922,1118812661,80.6074448,81.0000458,5.494261,??,1113465391,1108679620,1086634779,1118531027,1094744529,1118959107
77.48189,51.7060776,3.87956667,70.57544,0.8205022,52.57185,86.04705,70.70268,51.4643745,22.6662846,17.3400784,98.93571,29.013998,40.1210251,23.4988422,79.48709,91.14756,1113017692,1117802411,1115288863,1090337066,1110972531,1097509222,14840629319.030035,2699991464811.4165,1117836882,89.45833,34.1696625,99.51673,?,1112464254,1091190358,1086783067,1113667406,1102439665,1116073602
29.0640221,90.3696747,90.6289749,10.7585993,18.6792374,71.18477,89.59065,25.9778557,83.75815,69.6098862,62.9980736,93.5885239,94.70518,56.07535,71.74045,12.0431089,63.5894432,1081222317,1116740616,1115368856,1095050846,1117725324,1117451650,1173124033029.6809,0.016593042867239546,1086148737,52.77058,69.14408,73.12558,"""?",1118366892,1117199295,1106186088,1115806767,1119691528,1114804573
85.8800354,85.43121,66.83458,83.83325,1.69849014,29.92316,88.68521,65.44641,27.500946,2.20077276,64.28579,36.7445869,15.65285,33.211647,29.4109325,22.3733215,69.32045,1109322044,1096268107,1102765772,1096813046,1119544414,1116614736,6124762837025.457,21268397204434.441,1092044865,23.2066479,52.91819,41.0425873,E,1117824833,1112382325,1109884287,1112884596,1118029870,1118928121
78.57655,49.96254,61.42098,98.4165955,7.09492636,86.89804,4.6704855,7.61000538,69.19046,24.7934132,44.3423462,29.0437622,36.5222168,42.7563744,7.03639936,31.93697,47.62597,1116166026,1120170586,1079827182,1105343733,1120385539,1108113421,117219803829.6171,400956918292.45679,1082899958,35.58351,25.2676468,99.64398,?4,1100789547,1116125586,1095288366,1093713451,1119692052,1088934263
19.3607368,30.4911327,77.68327,32.2362061,80.98771,90.87158,96.4811249,47.051796,38.5472527,5.476699,64.7333755,84.9808044,40.1734428,68.31117,75.54247,93.99656,68.6926,1119044926,1108255929,1115688812,1118267171,1104801664,1091864663,237991920712.59796,55985.25800924284,1085380175,2.49359775,89.8619156,2.982063,?,1116782206,1120221600,1113045938,1095022789,1117771605,1119726017
73.02031,75.82703,38.54413,23.47338,87.172554,29.6800613,34.5148773,78.7720947,13.1932249,41.8125343,77.06066,36.8504143,98.8462448,52.2732277,13.3423691,31.530653,40.77188,1116940876,1112687266,1110298309,1117018853,1095312807,1103875327,16552994.076134037,42730070209.945496,1114345845,2.349885,68.9819,72.68146,?,1100200664,1114409613,1114558079,1068104767,1113806947,1118835719
8.240415,54.6185532,73.77552,83.82094,82.2599,59.13969,10.1435242,86.5738754,31.0620518,41.882782,27.8144531,2.57490516,95.71401,48.61046,11.5417747,0.868015468,43.75237,1112942719,1118446525,1103397858,1117505713,1096936677,1109864155,16865340475452.195,2730121253900.7388,1096602319,79.98163,11.9957113,0.0569236949,?,1113168304,1115594479,1088701998,1117121554,1116627522,1081977194
70.62051,51.4171562,31.0120354,30.3676453,44.08459,92.39199,25.42008,57.6824379,26.29281,55.0867043,98.73941,35.943512,23.4451427,54.9643173,39.51892,3.920459,67.56951,1107029478,1106997715,1115762910,1106920693,1113018568,1119519507,12776949826.013754,12130927567930.875,1115583616,39.69604,17.3502846,43.9365463,??,1116092927,1115977553,1095842242,1119219151,1105989218,1080991577
86.3221359,20.61097,99.38065,29.0421181,39.566143,12.7684174,12.0729647,10.2625694,60.6398659,12.02855,65.62856,81.4532242,89.21463,38.5102158,67.80554,37.243042,67.43688,1119020670,1117784258,1110801850,1102629804,1119726308,1118524032,7.9629144847314421,57718448478.902832,1120107039,61.0674973,63.74936,26.8610134,Z?,1113709040,1119490410,1117527052,1106378586,1117255076,1088435497
29.1837559,7.81185961,89.7544,13.9157429,1.78503931,36.9375153,38.37376,26.1494827,72.3488541,82.1040649,52.6888847,94.6070557,85.84747,32.0727425,25.8699055,4.28070831,88.14091,1110810003,1110038200,1118446379,1115762521,1116995396,1095977766,90894713400.752228,31993198950291.406,1104552207,64.52162,72.4892,26.2896366,?*,1102363607,1099900077,1069917278,1094613967,1116001014,1119633430
50.4494667,78.74274,39.153923,86.06227,76.07203,31.82785,41.2086372,10.3696232,58.183876,19.65895,89.21529,30.3293133,58.4004173,44.8362045,24.46319,30.3255234,6.09441662,1110801182,1119876416,1110786129,1090644229,1109611889,1115542353,95802573143.712357,11871434330294.174,1088766087,75.1714249,40.4687347,85.17672,Z9,1105613313,1116657953,1114760874,1117625524,1118290227,1116348883
